stop_id,stop_name,stop_lat,stop_lon
1001,Podkowa - koniec,53.17622200701731,18.0146126772552
1002,Podkowa - początkowy,53.176188615926,18.0141245283687
1003,Jeździecka - Dżokejowa,53.1762509842509,18.0188542083478
1004,Jeździecka - Dżokejowa,53.1762023577879,18.0191884277422
1005,Jeździecka - Hipiczna,53.175722651376,18.0327869105108
1006,Jeździecka - Hipiczna,53.1756278651811,18.0327827246539
1007,Jeździecka - Ogród Botaniczny,53.17593900958885,18.04488654587272
1008,Jeździecka - Ogród Botaniczny,53.17567481328706,18.04526760875347
1009,Jeździecka - Gdańska,53.17276472073971,18.0516478049886
1010,Gdańska - Jeździecka,53.17187929142872,18.05134201516994
1011,Gdańska - Jeździecka,53.171722,18.05175
1012,Armii Krajowej - Zamczysko,53.16320323663032,18.05533173711092
1013,Armii Krajowej - Zamczysko,53.16252605282704,18.05458460739436
1014,Zamczysko - Armii Krajowej,53.16323043214543,18.05342153417101
1015,Zamczysko - Gdańska,53.16500127226844,18.04696950037942
1016,Zamczysko - Gdańska,53.16487259564804,18.04726447566242
1017,Myślęcinek,53.161751,18.039667
1018,Las Gdański,53.15006153809025,18.02825074615552
1019,Las Gdański,53.14929601077366,18.02722997524462
1020,Las Gdański,53.149944,18.027555
1021,Las Gdański,53.14982511975099,18.02521584905219
1022,Las Gdański,53.149624184842,18.025697664992
1023,Las Gdański,53.1496855838003,18.0256545414131
1024,Stadion Zawisza,53.14564806804628,18.02354190989466
1025,Stadion Zawisza,53.14562383397442,18.02343367696784
1026,Modrzewiowa - Gdańska,53.14544442238129,18.02571239021272
1027,Modrzewiowa - Gdańska,53.14517484943522,18.02618836022672
1028,Leśne,53.14220052427972,18.03110535186705
1029,Leśne,53.14241025019829,18.03121426314954
1030,Leśne,53.14199540692985,18.0305754318987
1031,Leśne,53.143307,18.031166
1032,Leśne,53.14341270344025,18.03117318537838
1033,Sułkowskiego - Czerkaska,53.1398524899697,18.02858216415672
1034,Sułkowskiego - Czerkaska,53.1400608437204,18.02853430025314
1035,Czerkaska - Gdańska,53.14217797432228,18.02096612445958
1036,Powstańców Warszawy - Gdańska,53.14274378880092,18.01916419218065
1037,Gdańska - Czerkaska,53.14289863255773,18.02101660688874
1038,Gdańska - Powstańców Warszawy,53.14162967008361,18.01954532484178
1039,Gdańska - Powstańców Warszawy,53.14202968536846,18.01979570597701
1040,Gdańska - Powstańców Warszawy,53.14208787183613,18.01992710865197
1041,Czerkaska - Sułkowskiego,53.14012818659172,18.02650689424399
1042,Czerkaska - Sułkowskiego,53.1401627714538,18.0262758875517
1043,Gdańska - Artyleryjska,53.138168,18.015944
1044,Gdańska - Artyleryjska,53.13804273875041,18.01574627260175
1045,Gdańska - Artyleryjska,53.138557,18.016582
1046,Gdańska - Artyleryjska,53.138557,18.016417
1047,Sułkowskiego - Kamienna,53.13671964750198,18.02492354938708
1048,Sułkowskiego - Kamienna,53.13543084754136,18.02342110798379
1049,Kamienna - Sułkowskiego,53.13576526573233,18.0249547279115
1050,Kamienna - Wyszyńskiego,53.13452741246703,18.03508107316699
1051,Kamienna - Wyszyńskiego,53.13388498856874,18.03779343010707
1052,Wyszyńskiego - Kamienna,53.133721327721,18.035950641949
1053,Wyszyńskiego - Głowackiego,53.1313377591599,18.0372952671827
1054,Wyszyńskiego - Cmentarz,53.13631851625482,18.03736197597801
1055,Wyszyńskiego - Cmentarz,53.136917,18.036528
1056,Kamienna - Gajowa,53.1334194321291,18.0423516228428
1057,Kamienna - Gajowa,53.1330509016253,18.04403993137779
1058,Centrum Wystawiennicze (Myślęcinek),53.1710250626485,18.0488385255442
1060,Kamienna - Gdańska,53.1370229647288,18.0165762521956
1061,Kamienna - Gdańska,53.1372452544369,18.016325126299
1062,Kamienna - Sułkowskiego,53.13587732440388,18.02526725988586
1063,Dworzec Leśne,53.1429446870648,18.03257313923002
1064,Dworzec Leśne,53.14266965086757,18.03283517224737
1065,Dworzec Leśne,53.14267419468536,18.03296460978855
1066,Modrzewiowa - Sułkowskiego,53.14224034297497,18.03271216521651
1067,Armii Krajowej - Jeżdziecka,53.172069,18.052922
2001,Piaski,53.17111199999999,17.969557
2002,Smukalska - Błądzimska,53.16733406140043,17.97186880855574
2003,Smukalska - Błądzimska,53.16763033876793,17.9716537836105
2004,Saperów - Kąpielisko,53.15460999999999,17.968918
2005,Saperów - Kąpielisko,53.15360999999999,17.969889
2006,Saperów - Komandosów,53.147583,17.97286
2007,Saperów - Komandosów,53.147694,17.972918
2008,Saperów - Czołgistów,53.145084,17.975889
2009,Saperów - Czołgistów,53.144554,17.976749
2010,Saperów - Zakątek,53.14322299999999,17.97839
2011,Saperów - Zakątek,53.142807,17.979168
2012,Saperów - Ludwikowo,53.139778,17.983307
2013,Saperów - Ludwikowo,53.13961,17.983778
2014,Żeglarska - Ludwikowo,53.137749,17.977861
2015,Żeglarska - Ludwikowo,53.138195,17.977444
2016,Pileckiego - Żeglarska,53.138721,17.978361
2017,Kąpielowa,53.137585,17.979584
2018,Pileckiego - Kmicica,53.138916,17.988222
2019,Pileckiego - Kmicica,53.1391666666667,17.9858333333333
2020,Pileckiego - Rynkowska,53.138668,17.993418
2021,Pileckiego - Rynkowska,53.138889,17.991943
2022,Pileckiego - Cmentarz,53.139084,17.998112
2023,Zaświat - Artyleryjska,53.1396805349859,18.00118270174891
2024,Zaświat - Artyleryjska,53.13963792293741,18.00151126029694
2025,Zaświat - Cmentarz,53.142082,18.003918
2026,Zaświat - Cmentarz,53.142666,18.004528
2027,Powstańców Warszawy - Skromna,53.14378,18.009027
2028,Powstańców Warszawy - Skromna,53.14369600000001,18.008499
2029,Powstańców Warszawy - Szpital Wojskowy,53.14312963164716,18.01566371205001
2030,Powstańców Warszawy - Szpital Wojskowy,53.14305317426129,18.01522910375131
2031,Rycerska,53.1372863911123,17.9988091369019
2032,Rycerska,53.1372565809921,17.9988748194681
2033,Dworzec Główny,53.1347181471965,17.9927262605831
2034,Dworzec Główny,53.1349019414949,17.9932475427504
2035,Dworzec Główny,53.1347365204109,17.9931103547561
2036,Dworzec Główny,53.1348491902762,17.9934351365841
2037,Dworzec Główny,53.1347083281948,17.9931800516726
2038,Dworzec Główny,53.1348334143386,17.9935075505091
2039,Dworzec Główny,53.1348823970241,17.9941873656587
2040,Dworzec Główny,53.1348016313873,17.9925416367889
2041,Rycerska,53.13726761234349,17.9990129895602
2042,Rycerska,53.1375255840579,17.9993185057816
2043,Rycerska,53.1374030089005,17.9991736040549
2044,Rycerska,53.1373766037802,17.9993180465211
2045,Rycerska,53.1374972684453,17.9994663276601
2046,Dworcowa - Sobieskiego,53.13319400000001,17.993639
2047,Warszawska - Fredry,53.133251,17.995916
2048,Plac Piastowski,53.1319492988936,17.9968989132865
2049,Fredry - Warszawska,53.132862,17.99675
2050,Hetmańska - Kaszubska,53.13344599999999,18.003944
2051,Mazowiecka - Pomorska,53.132721,18.00461
2052,Plac Teatralny,53.124299558787,18.0010708467556
2053,Plac Teatralny,53.1243598628251,18.0006951400508
2054,Focha - Opera,53.1251110946496,17.997130842282
2055,Focha - Opera,53.1251770307034,17.9971473892785
2056,Focha - Opera,53.12545150001899,17.9967621861693
2057,Garbary,53.12656061648566,17.99141935990474
2058,Garbary,53.126001267489,17.9907687730867
2059,Garbary ,53.125443,17.993723
2060,Garbary,53.126583,17.990557
2061,Garbary,53.1257446102519,17.9927548027618
2062,Garbary,53.1256989344564,17.9927534765119
2063,Rycerska,53.1374979584337,17.9996468335407
2064,Rycerska,53.13720035261081,17.9995755189725
2065,Rycerska,53.137245609838,17.9995408971113
2066,Rycerska,53.1372927762172,17.9995025389054
2069,Garbary,53.12650001074401,17.9918714553849
2070,Garbary,53.12632304145609,17.9917504377623
2071,Dworcowa - Matejki,53.1303729128895,17.9961812672098
2072,Dworcowa - Matejki,53.1297188877612,17.9955170719363
2073,Kmicica - Pileckiego,53.139717,17.987118
2074,Garbary,53.12673048093841,17.9913421685156
2075,Piaski,53.17093548237747,17.96966761616523
2076,Pileckiego - Żeglarska,53.13838619689489,17.97636451646172
2077,Artyleryjska - Zaświat,53.1392550108103,18.0040838670806
2078,Artyleryjska - Zaświat,53.1393333899109,18.0021772906029
2079,Plac Piastowski,53.1320825684679,17.9991544215223
2080,Śniadeckich - Sienkiewicza,53.1305154939,18.0002285692533
3001,Mickiewicza - Teatr Polski,53.13108400000001,18.012943
3002,Mickiewicza - Teatr Polski,53.1309895566672,18.0126488796551
3003,Rondo Wielkopolskie,53.12943212514221,18.0210413457742
3004,Rondo Wielkopolskie,53.1291056855836,18.0230209983241
3005,Rondo Wielkopolskie,53.128307,18.02125
3006,Powstańców Wielkopolskich - Lelewela,53.1293761596216,18.029743190768
3007,Powstańców Wielkopolskich - Lelewela,53.12935481093981,18.0279246413554
3008,Paderewskiego,53.13019166666667,18.01314722222222
3009,Paderewskiego,53.129717442661,18.0126539102344
3010,Krasińskiego - Gimnazjalna,53.127808,18.007418
3011,Markwarta - 3 Maja,53.12678888888889,18.01056111111111
3012,Plac Weyssenhoffa,53.129082,18.015444
3013,Rondo Ossolińskich,53.127056,18.016193
3014,Rondo Ossolińskich,53.1258,18.017775
3015,Rondo Ossolińskich,53.12607222222222,18.01772222222222
3016,Ogińskiego - Moniuszki,53.1264894421595,18.0207628210435
3017,Skłodowskiej Curie - Jurasza,53.126165783753,18.0306107335505
3018,Skłodowskiej Curie - Jurasza,53.1262651116911,18.0305519926916
3019,Gdańska - Cieszkowskiego,53.1300550359884,18.0079304254136
3020,Gdańska - Cieszkowskiego,53.1305011273483,18.0082430219466
3021,Plac Wolności,53.1265359806111,18.0042611938309
3022,Plac Wolności,53.1264587097868,18.0040400194643
3023,Gdańska - Dworcowa,53.1252028870653,18.0031455912218
3024,Gdańska - Dworcowa,53.12518748539039,18.0031968678991
3025,Rondo Jagiellonów,53.123625097917,18.0070461427613
3026,Rondo Jagiellonów,53.12356877973771,18.0070230819757
3027,Rondo Jagiellonów,53.12338187839249,18.0085920234805
3028,Rondo Jagiellonów,53.1233309592525,18.0086674279034
3029,Rondo Jagiellonów,53.12379764784101,18.0066678563801
3030,Rondo Jagiellonów,53.12261666666666,18.00723611111111
3031,Rondo Jagiellonów,53.12306345579881,18.0102088413519
3032,Rondo Jagiellonów,53.1241112891889,18.0086717208306
3033,Rondo Jagiellonów,53.1243789534412,18.0087635091861
3034,Rondo Jagiellonów,53.124195,18.008444
3035,Jagiellońska - Piotrowskiego,53.1234364682249,18.0144077711717
3036,Dworzec Autobusowy,53.1231879810651,18.0182645318464
3037,Dworzec Autobusowy,53.1231361167237,18.0183506401988
3038,Dworzec Autobusowy,53.1233606602431,18.0180570708456
3039,Dworzec Autobusowy,53.1227863831639,18.0202793756378
3040,Dworzec Autobusowy,53.1235375891031,18.0196876894428
3041,Jagiellońska - Łużycka,53.12191252208811,18.0277297061191
3042,Jagiellońska - Łużycka,53.1219265384165,18.0274815238427
3043,Gdańska - Chodkiewicza,53.1347637531688,18.01258055630526
3044,Gdańska - Chodkiewicza,53.13424251052332,18.01213500092533
3045,Chodkiewicza - Paderewskiego,53.1328320908752,18.01710425636821
3046,Chodkiewicza - Paderewskiego,53.13295654150206,18.01685142821845
3047,UKW,53.13173299231832,18.0204406074139
3048,UKW,53.13145241137433,18.02196319404995
3049,Chodkiewicza - Lelewela,53.13179377700925,18.02879077540004
3050,Chodkiewicza - Lelewela,53.13183068716499,18.02856558920247
3051,Bielawy - koniec,53.13222099999999,18.033693
3052,Bielawy - peron 1,53.13242801736794,18.03329421975347
3053,UKW,53.1319961611504,18.0211968893281
3054,UKW,53.130853607543,18.021297072122
3055,Śniadeckich - Gdańska,53.128456,18.00569
3056,Chodkiewicza - Gdańska,53.1343300830424,18.01294321879159
3057,Dworzec Autobusowy,53.12443376636299,18.0193573927401
3058,3 Maja - Markwarta,53.12650842631571,18.0097051921829
3059,Plac Teatralny - Mostowa,53.1236427416526,18.00150128255007
3060,Jagiellońska / Łużycka,53.1217724558599,18.0278969738337
3061,Jagiellońska / Łużycka,53.1220918122457,18.0271571960218
3062,Bielawy - peron 2,53.13239270022783,18.03336171666252
4001,Powstańców Wielkopolskich - Wyszyńskiego,53.130222,18.038584
4002,Powstańców Wielkopolskich - Wyszyńskiego,53.1299980470823,18.0361815506008
4003,Powstańców Wielkopolskich - Wyszyńskiego,53.130112,18.040222
4004,Głowackiego - Gajowa,53.13172099999999,18.043694
4005,Głowackiego - Gajowa,53.131527,18.044001
4006,Głowackiego - Bałtycka,53.131222,18.046972
4007,Głowackiego - Bałtycka,53.131138,18.047112
4008,Bałtycka - Głowackiego,53.130138,18.0495
4009,Bałtycka - Głowackiego,53.12989,18.049307
4010,Morska,53.129749,18.053223
4011,Morska,53.129696,18.05525
4012,Morska,53.129581,18.055445
4013,Rondo Skrzetuskie,53.1262966887306,18.0367114348229
4014,Rondo Skrzetuskie,53.1277431023734,18.0381535037155
4015,Skłodowskiej Curie - Gajowa,53.1264977644613,18.0423971866822
4016,Skłodowskiej Curie - Gajowa,53.12661597232161,18.0422682673534
4017,Skłodowskiej Curie - Bałtycka,53.12633382576941,18.0470147518181
4018,Skłodowskiej Curie - Bałtycka,53.1259818419254,18.0488871504976
4019,Bałtycka - Skłodowskiej Curie,53.12749900000001,18.048445
4020,Skłodowskiej Curie - Łęczycka,53.1252858310147,18.0543448440632
4021,Skłodowskiej Curie - Łęczycka,53.1255912799866,18.0528076474457
4022,Rondo Fordońskie,53.12094837378389,18.033926116141
4023,Rondo Fordońskie,53.12091231494669,18.0340140800897
4024,Rondo Fordońskie,53.1209894937653,18.0362854445097
4025,Rondo Fordońskie,53.12094780452101,18.0362839353947
4026,Rondo Fordońskie,53.12207078833691,18.0349150442122
4027,Rondo Fordońskie,53.1210380255507,18.0331425928951
4028,Rondo Fordońskie,53.12177556573701,18.035720395035
4029,Rondo Fordońskie,53.12074150446631,18.0371924898749
4030,Fordońska - Bałtycka,53.1206559536539,18.0474788957978
4031,Fordońska - Bałtycka,53.12070186671361,18.0473001555094
4032,Fordońska - Bałtycka,53.12056495570959,18.0472350083841
4033,Fordońska - Bałtycka,53.1207796244764,18.0478588028281
4034,Most Kazimierza Wielkiego,53.120861,18.058111
4035,Most Kazimierza Wielkiego,53.1206894139356,18.0558369796446
4036,Most Kazimierza Wielkiego,53.12072491408801,18.0580758458003
4037,Fordońska - Szajnochy,53.1212538565193,18.0603971767833
4038,Fordońska - Fabryczna,53.12207574864,18.0659622842711
4039,Fordońska - Fabryczna,53.1217077223632,18.0646655199498
4040,Fordońska - Fabryczna,53.12205196986049,18.0662930995794
4041,Fordońska - Fabryczna,53.12267959816509,18.0672323975828
4042,Fordońska - Towarowa,53.122971,18.068693
4043,Fordońska - Towarowa,53.12289,18.068251
4044,Fordońska - Wyścigowa,53.1249667076923,18.0779305370708
4045,Fordońska - Wyścigowa,53.12476093798941,18.0759064873714
4046,Fordońska - Wyścigowa,53.1246586368933,18.0761021838277
4047,Wyścigowa,53.1253583366016,18.0770070235434
4048,Wyścigowa,53.12535248062839,18.0769007642948
4049,Fordońska - Wyścigowa,53.1246891568382,18.0760813870288
4050,Wyścigowa,53.126026,18.077749
4051,Wyścigowa,53.1264865460226,18.0797248223449
4052,Wyścigowa,53.12616700000001,18.078667
4053,Wyścigowa,53.12616700000001,18.078167
4054,Inwalidów - Harcerska,53.1288408605608,18.08223576355591
4055,Inwalidów - Harcerska,53.12878400494847,18.08225360393177
4056,Inwalidów - R.O.D.-Wyczółkowskiego,53.12909130766792,18.07792569470681
4057,Inwalidów - R.O.D.-Wyczółkowskiego,53.12930899204778,18.07674043247319
4058,Inwalidów - R.O.D.-Makrum,53.13035783636795,18.0691861385741
4059,Inwalidów - R.O.D.-Makrum,53.13016290959465,18.07019963386216
4060,Dworzec Bielawy (Inwalidów),53.13240880129563,18.05480711198342
4061,Dworzec Bielawy (Inwalidów),53.13236888158366,18.05468911709404
4062,Dworzec Bielawy,53.13162102759598,18.05288163296097
4063,Dworzec Bielawy,53.130974,18.056055
4064,Bałtycka ,53.120888,18.047361
4065,Wyszyńskiego - Powstańców Wielkopolskich,53.12932005303388,18.0373679103979
4066,Kamienna - Fabryczna,53.12994400000001,18.064528
4067,Kamienna - Fabryczna,53.129391,18.066944
4068,Most Kazimierza Wielkiego,53.1200941478848,18.0567710242398
4069,Most Kazimierza Wielkiego,53.1212985869907,18.0569683183841
4070,Fordońska - Gajowa,53.1209653143968,18.0402121636181
5001,Smukała,53.191807,17.970751
5002,Opławiec - Biwakowa,53.195389,17.969278
5003,Opławiec - Biwakowa,53.19569400000001,17.969
5004,Opławiec - Elektrownia,53.190834,17.964251
5005,Opławiec - Elektrownia,53.19102900000001,17.964193
5006,Opławiec - Przedszkole,53.186943,17.960556
5007,Opławiec - Przedszkole,53.18639,17.959862
5008,Opławiec - Meysnera,53.18558099999999,17.95911
5009,Opławiec - Meysnera,53.185028,17.958584
5010,Meysnera - Opławiec,53.185528,17.958055
5011,Sanatorium,53.186501,17.946251
5012,Opławiec - Wypoczynkowa,53.17758200000001,17.957361
5013,Opławiec - Wypoczynkowa,53.178028,17.957443
5014,Opławiec - Kolonijna,53.173168,17.955528
5015,Opławiec - Kolonijna,53.173611,17.955807
5016,Opławiec - Koronowska,53.16736199999999,17.951555
5017,Opławiec - Koronowska,53.168446,17.952639
5018,Koronowska - Wodociągi,53.156891,17.954805
5019,Koronowska - Wodociągi,53.158943,17.954
5020,Nad Torem - Chmurna,53.150112,17.959888
5021,Nad Torem - Chmurna,53.151196,17.95886
5022,Nad Torem - Karolewska,53.145779,17.962389
5023,Nad Torem - Karolewska,53.147141,17.962389
5024,Nad Torem - Orlicza,53.14018953010387,17.96281349153898
5025,Nad Torem - Orlicza,53.142113,17.962973
5026,Czyżkówko,53.14436,17.949417
5027,Deszczowa - Wichrowa,53.148556,17.950693
5028,Deszczowa - Wichrowa,53.148472,17.950138
5029,Deszczowa - Wiejska,53.150082,17.956972
5030,Wiejska - Deszczowa,53.14972299999999,17.95764
5031,Wiejska - Chojnicka,53.146584,17.956694
5032,Wiejska - Chojnicka,53.14755600000001,17.957001
5033,Wiejska - Krajeńska,53.141945,17.955278
5034,Krajeńska - Wiejska,53.141445,17.955639
5035,Krajeńska - Koronowska,53.141083,17.959028
5036,Rondo Maczka,53.13769384346998,17.96451805199656
5037,Rondo Maczka,53.13677678427575,17.96230018259571
5038,Grunwaldzka - Kanałowa,53.1300701117519,17.9779549343124
5039,Grunwaldzka - Kanałowa,53.1294532258167,17.9790529711855
5040,Grunwaldzka - Kraszewskiego,53.1334793601088,17.9691894251011
5041,Grunwaldzka - Kraszewskiego,53.133031145977,17.9699268351106
5042,Grunwaldzka - Flisacka,53.13689,17.95886
5043,Grunwaldzka - Flisacka,53.13663900000001,17.959473
5044,Grunwaldzka - Filtrowa,53.139832,17.947832
5045,Grunwaldzka - Filtrowa,53.139084,17.950251
5046,Grunwaldzka - Las,53.143917,17.933556
5047,Grunwaldzka - Las,53.14336,17.935167
5048,Grunwaldzka - Przejście,53.145416,17.928167
5049,Grunwaldzka - Przejście,53.14494300000001,17.929443
5050,Grunwaldzka - Kolbego,53.14722100000001,17.921307
5051,Kolbego - Grunwaldzka,53.148277,17.919945
5052,Kolbego - Kogucia,53.15477800000001,17.917028
5053,Kolbego - Kogucia,53.154919,17.916834
5054,Kolbego - Wielorybia,53.158585,17.912306
5055,Kolbego - Wielorybia,53.157833,17.913445
5056,Rekinowa,53.160027,17.908693
5057,Podmiejska - Kruszyńska,53.144001,17.914278
5058,Podmiejska - Kruszyńska,53.14430600000001,17.914528
5059,Srebrna - Stalowa,53.142582,17.906445
5060,Srebrna - Stalowa,53.14236100000001,17.907473
5061,Srebrna - Spiżowa,53.14369600000001,17.903168
5062,Srebrna - Spiżowa,53.143749,17.900612
5063,Spiżowa - Ołowiana,53.147305,17.905306
5064,Niklowa,53.146942,17.899889
5065,Flisacka - Grunwaldzka,53.136665,17.957193
5066,Dworzec Zachód,53.136055,17.946417
5067,Dworzec Zachód,53.136002,17.946611
5068,Mińska - Studzienna,53.13636,17.939472
5069,Mińska - Studzienna,53.136333,17.940472
5070,Mińska - Plonowa,53.13736,17.932833
5071,Mińska - Plonowa,53.137196,17.933889
5072,Kruszyńska - Krańcowa,53.14172400000001,17.924749
5073,Kruszyńska - Krańcowa,53.141609,17.925611
5074,Kruszyńska - Sowia,53.142944,17.919306
5075,Kruszyńska - Sowia,53.142612,17.919861
5076,Deszczowa-na żądanie,53.146027,17.948917
5077,Opławiec - Internat,53.194942,17.966862
5078,Rondo Maczka,53.13794848631115,17.9637688506279
5079,Kolbego-Grunwaldzka,53.14814,17.919889
5080,Grunwaldzka-Kolbego,53.147945,17.919222
5081,Niklowa-koniec,53.147251,17.900084
5082,Grunwaldzka - Chojnicka,53.138779,17.95175
5083,Opławiec - Soboczyńskiego,53.18199900000001,17.957001
5084,Opławiec - Soboczyńskiego,53.181,17.957001
5085,Kolbego - Dzięciołowa,53.15215596145734,17.91818604531963
5086,Kolbego - Dzięciołowa,53.15137259243748,17.91842869738301
5087,Smukalska - Sanktuarium nż,53.1785,17.9683
5088,Smukalska - Sanktuarium nż,53.17769999999999,17.9682
5089,Smukalska - Agrestowa,53.18370000000001,17.9673
5090,Smukalska - Agrestowa,53.1847,17.9675
5091,Smukalska - Baranowskiego nż,53.1875,17.9686
5092,Smukalska - Baranowskiego nż,53.1877,17.9686
5093,Rondo Maczka,53.13625737588738,17.9646246128804
5094,Rondo Maczka,53.13694571972901,17.96592332777335
6001,Rondo Grunwaldzkie,53.1259071492881,17.9845209493066
6002,Rondo Grunwaldzkie,53.1245,17.985916
6003,Rondo Grunwaldzkie,53.12553363150801,17.9880950209107
6004,Rondo Grunwaldzkie,53.1267372987988,17.9860383152662
6005,Rondo Grunwaldzkie,53.1257700918481,17.9874598239232
6006,Rondo Grunwaldzkie,53.1257554802879,17.9876991005778
6007,Nakielska - Wrocławska,53.12616700000001,17.981112
6008,Nakielska - Wrocławska,53.126083,17.981722
6009,Nakielska - Stawowa,53.126389,17.97575
6010,Nakielska - Stawowa,53.126221,17.976334
6011,Nakielska - Wrzesińska,53.127361,17.968805
6012,Nakielska - Wrzesińska,53.127251,17.969639
6013,Nakielska - Wrzesińska,53.127056,17.970444
6014,Nakielska - Wrzesińska,53.127167,17.969473
6015,Nakielska - Słoneczna,53.12840696764211,17.96331781379731
6016,Nakielska - Słoneczna,53.12833966694375,17.96339722265606
6017,Wilczak,53.12967130039904,17.95640857083131
6018,Wilczak,53.12941653925248,17.95725862626438
6019,Nakielska - Widok,53.131248,17.947001
6020,Nakielska - Widok,53.13080599999999,17.94875
6021,Nakielska - Pijarów,53.13208400000001,17.940332
6022,Nakielska - Pijarów,53.131973,17.941418
6023,Nakielska - Wiśniowa,53.132332,17.934139
6024,Nakielska - Wiśniowa,53.132195,17.935362
6025,Nakielska - Żywiecka,53.132999,17.9245
6026,Nakielska - Żywiecka,53.132721,17.926529
6027,Nakielska - Iglasta,53.133305,17.920778
6028,Nakielska - Tarnowska,53.133862,17.917194
6029,Nakielska - Tarnowska,53.13391900000001,17.916
6030,Nakielska - Notecka,53.134666,17.911057
6031,Nakielska - Notecka,53.134388,17.912666
6032,Nakielska - Lisia,53.13425099999999,17.906721
6033,Nakielska - Lisia,53.134277,17.907057
6034,Łochowska,53.130333,17.899166
6035,Łochowska,53.130638,17.899
6036,Belma,53.125252,17.898556
6037,Rondo Grunwaldzkie,53.125584,17.988583
6038,Bronikowskiego - Nakielska,53.13135900000001,17.952473
6039,Lisia,53.1346918708672,17.9073654097103
6040,Wilczak,53.1292745833108,17.9581379913205
6041,Wilczak,53.1292060016047,17.9578776628907
7001,Dworzec Wschód,53.1265928906612,18.0854140863042
7002,Dworzec Wschód,53.1267713880185,18.0829251508923
7003,Przemysłowa - Portowa,53.126221,18.096472
7004,Przemysłowa - Portowa,53.126499,18.094917
7005,Przemysłowa - Os. Rzemieślnicze,53.12536200000001,18.102333
7006,Przemysłowa - Tartak,53.12339,18.110332
7007,Przemysłowa - Tartak,53.124001,18.109138
7008,Przemysłowa,53.11990053337845,18.11415324848493
7009,Fordońska - Kapliczna,53.1291911250045,18.0978776997458
7010,Fordońska - Kapliczna,53.12934975194371,18.097503013091
7011,Fordońska - Sochaczewska,53.13039808530581,18.1034349227119
7012,Fordońska - Sochaczewska,53.1302305523291,18.1016263885666
7013,Fordońska - Wiślana,53.1323138888889,18.1122555555556
7014,Fordońska - Wiślana,53.1324527777778,18.1118027777778
7015,Fordońska - Łowicka,53.134887699024,18.1219956781121
7016,Łowicka - Pilicka,53.13269400000001,18.123112
7017,Łowicka - Pilicka,53.133278,18.12261
7018,Łowicka - Szkoła,53.130611,18.125334
7019,Łowicka - Szkoła,53.131138,18.124971
7020,Tor Regatowy,53.128113,18.128195
7021,Tor Regatowy,53.12802900000001,18.129278
7022,Witebska - Wschodnia,53.129333,18.132221
7023,Witebska - Wschodnia,53.129696,18.132944
7024,Witebska,53.132557,18.136833
7025,Fordońska - Traktorzystów,53.1363248113076,18.1272436109331
7026,Fordońska - Traktorzystów,53.136528,18.127056
7027,Dworzec - Akademia,53.13927920090769,18.1380606790342
7028,Dworzec - Akademia,53.1389554698771,18.1360626655026
7029,Fordońska - Wyszogrodzka,53.1420640138048,18.1483141206874
7030,Fordońska - Wyszogrodzka,53.1421953774295,18.1480153970263
7031,Dworzec Fordon,53.14402799999999,18.155472
7032,Dworzec Fordon,53.145416,18.159889
7033,Dworzec Fordon,53.144749,18.157389
7034,Dworzec Fordon,53.145332,18.15675
7035,Fordońska - Wiadukt,53.1469983403626,18.1661039094025
7036,Fordońska - Wiadukt,53.1468019536653,18.164787165568
7037,Fordon - Rynek,53.1498236783092,18.1731285372644
7038,Fordon - Rynek,53.149361,18.173361
7039,Wyzwolenia - Styki,53.1525721200812,18.1709171235285
7040,Wyzwolenia - Styki,53.1526755866872,18.1712294685913
7041,Wyzwolenia - Styki,53.152710372604,18.1713811793768
7042,Przemysłowa - Os. Rzemieślnicze,53.125668,18.1005
7043,Przemysłowa,53.120361,18.114111
7044,Brdyujście,53.13241599999999,18.137362
7045,Wyszogrodzka - Opalowa,53.135418,18.141666
7046,Wyszogrodzka - Opalowa,53.135113,18.141222
7047,Brdyujście,53.132362,18.137167
7048,Skandynawska - Ikea,53.13133487513131,18.1189625429297
7049,Więcka - Łowicka,53.1317320606204,18.1233091647447
7050,Kamienna - Wyścigowa,53.1280482764984,18.0777591991843
7051,Dworzec Wschód,53.1273773278377,18.0807245540138
7052,Dworzec Wschód,53.126425,18.0868027777778
7054,Skandynawska - Ikea,53.13216415905491,18.1186665986454
7055,Fordońska - Łowicka,53.13528830386061,18.1225961167524
7056,Więcka - Łowicka,53.1318055555556,18.1232638888889
7057,Dworzec Wschód,53.1278419376719,18.0826877606707
7058,Dworzec Wschód,53.1278611111111,18.0826416666667
7059,Dworzec Wschód,53.127222169228,18.0835044232673
7060,Tor Regatowy - koniec,53.1276372630157,18.1280407380702
7061,Witebska - Gazbud,53.12113857068349,18.12012084470123
7062,Witebska - Gazbud,53.12103917542103,18.12014954205732
7063,Przemysłowa - Przejazd,53.12115475711831,18.11495053970423
7064,Przemysłowa - Przejazd,53.12109029172971,18.11488300357139
8001,Wyzwolenia - Swobodna,53.157307,18.167389
8002,Wyzwolenia - Swobodna,53.1562121451077,18.1678301748195
8003,Wyzwolenia - Andersa,53.1618131565199,18.1657548074752
8004,Wyzwolenia - Andersa,53.1618551663257,18.1656799755347
8005,Niepodległości,53.16015860806329,18.1663328008378
8006,Niepodległości,53.1594213265519,18.1650359813281
8007,Wyzwolenia - Derdowskiego,53.166058,18.164417
8008,Wyzwolenia - Derdowskiego,53.1665894856441,18.1640394630171
8009,Mariampol,53.173557,18.168362
8010,Geodetów - Pienińska,53.173714458502,18.1694701139662
8011,Wyzwolenia - Komisariat,53.17180877769655,18.16397554719415
8012,Wyzwolenia - Komisariat,53.17168541186924,18.16387109904406
8013,Tatrzańskie,53.169777,18.162916
8014,Tatrzańskie,53.1694675439912,18.1632908029243
8015,Tatrzańskie,53.1694799267142,18.163483557804
8016,Bora Komorowskiego - Braci Bażańskich,53.1700849004174,18.1750186552459
8017,Bora Komorowskiego - Braci Bażańskich,53.1692450398875,18.1750070610726
8018,Bora Komorowskiego - Gieryna,53.166721,18.175083
8019,Bora Komorowskiego - Gieryna,53.166584,18.174889
8020,Bora Komorowskiego - Kiedrowskiego,53.16366967239834,18.17494766268976
8021,Bora Komorowskiego - Kiedrowskiego,53.16277699999999,18.174807
8022,Piłsudskiego - Swobodna,53.1587838399104,18.1724968514451
8023,Piłsudskiego - Swobodna,53.1588780335323,18.1725543744186
8024,Nad Wisłą,53.15789,18.179056
8025,Nad Wisłą,53.157944,18.178362
8026,Pelplińska - Jarużyńska,53.1649632651815,18.1621459850148
8027,Pelplińska - Jarużyńska,53.1661995667184,18.1615402108955
8028,Pelplińska - Taterników,53.16097661023311,18.1610018174428
8029,Pelplińska - Taterników,53.1601918211902,18.1598571827026
8030,Twardzickiego - Powalisza,53.1575262322483,18.1509231114284
8031,Twardzickiego - Powalisza,53.1575978139278,18.1508171081271
8032,Twardzickiego - Witosa,53.1545242253766,18.1477485157916
8033,Twardzickiego - Witosa,53.154446,18.147556
8034,Twardzickiego - Thommee,53.1529978082658,18.1408447583588
8035,Twardzickiego - Thommee,53.1530910743454,18.1407708453681
8036,Twardzickiego - Kleina,53.1524888227447,18.1306584291441
8037,Twardzickiego - Kleina,53.1526610666281,18.1287009514553
8038,Twardzickiego - Łochowskiego,53.1521591828606,18.1231410846145
8039,Twardzickiego - Łochowskiego,53.1526123728851,18.1247599720973
8040,Korfantego - Prejsa,53.14925194850521,18.1221272427812
8041,Korfantego - Prejsa,53.1485963250669,18.1222481953091
8042,Akademicka - Romanowskiej,53.14461097940381,18.1185320629757
8043,Akademicka - Romanowskiej,53.14443491876011,18.1166750132591
8044,Centrum Onkologii,53.1474982469694,18.1123740489935
8045,Centrum Onkologii,53.14762343000751,18.1131230352274
8046,Akademicka - Rejewskiego,53.1425601211407,18.1110740772901
8047,Rejewskiego - Akademicka,53.14165784554131,18.110252490916
8048,Matki Teresy z Kalkuty - Akademicka,53.14307166579711,18.1097988474306
8049,Rejewskiego - Auchan,53.1391269497951,18.1148180520986
8050,Rejewskiego - Auchan,53.13851380954,18.115334191685
8051,Auchan,53.137859,18.113388
8052,Andersa - Kasztelańska,53.1545552059822,18.1615519364535
8053,Andersa - Kasztelańska,53.1537393698366,18.1604286236217
8054,Bajka,53.151620233275,18.1537747592249
8055,Bajka,53.15169281371901,18.1527398464868
8056,Andersa - Kleeberga,53.1508641708447,18.1460508761927
8057,Andersa - Kleeberga,53.1502785143611,18.1444872174159
8058,Akademicka - Igrzyskowa,53.1487520663808,18.138003696894
8059,Akademicka - Igrzyskowa,53.1489987223286,18.1364389506883
8060,Akademicka - Kaliskiego (UTP),53.1478335898684,18.1304560304882
8061,Akademicka - Kaliskiego,53.148224,18.130611
8062,Kaliskiego - UTP,53.1425381590362,18.1338268752817
8063,Kaliskiego - UTP,53.14436,18.132029
8064,Brzechwy - Szafirowa,53.150501,18.154806
8065,Brzechwy - Szafirowa,53.150391,18.154722
8066,Brzechwy - Szelburg Zarembiny,53.14830547336311,18.1561517225518
8067,Brzechwy - Szelburg Zarembiny,53.148167,18.155945
8068,Wyzwolenia - Swobodna,53.159138,18.166611
8069,Niepodległości,53.1591123369474,18.1664722937494
8070,Tatrzańskie,53.1694800835665,18.1636741011679
8071,Skarżyńskiego - Twardzickiego,53.156502,18.154917
8072,Skarżyńskiego - Twardzickiego,53.156807,18.154861
8073,Bajka,53.1526562289172,18.1542465191279
8074,Skarżyńskiego - Kwiatkowskiego,53.1546522732797,18.1560081190665
8075,Łoskoń,53.1729058905191,18.174740563928
8076,Łoskoń,53.17290260321009,18.1745975743823
8077,Pod Skarpą - Żemojtela,53.15535,18.113951
8078,Pod Skarpą - Żemojtela,53.155167,18.114367
8079,Pod Skarpą - Stamma,53.157452,18.103416
8080,Pod Skarpą - Stamma,53.157398,18.103518
8081,Eskulapa,53.157902,18.098633
8083,Akademicka - Kaliskiego (UTP),53.1476294132257,18.1284320674552
8084,Kaliskiego  - Akademicka  (UTP),53.14712893022319,18.1297873669421
8085,Akademicka - Rejewskiego,53.1422215852749,18.1093375451797
8086,Akademicka - Rejewskiego,53.14225446022319,18.1093039541733
8087,Akademicka - Rejewskiego,53.14231763696451,18.1089068577138
8088,Akademicka - Romanowskiej,53.1443715730468,18.1171222036401
8089,Akademicka - Romanowskiej,53.1444111517234,18.1170908047594
8090,Przylesie,53.1462376187976,18.1240873837994
8091,Przylesie,53.1459127902596,18.1227599805198
8092,Przylesie,53.1461677071417,18.1245294050199
8093,Przylesie,53.145953037769,18.1223286195251
8094,Przylesie,53.1469303950239,18.1230952958861
8095,Akademicka - Kaliskiego (UTP),53.14791954585561,18.1301868526797
8096,Akademicka - Kaliskiego (UTP),53.14756114000529,18.1287689688512
8097,Akademicka - Igrzyskowa,53.148651,18.137882
8098,Akademicka - Igrzyskowa,53.1486928537599,18.1378943584724
8099,Andersa - Kleeberga,53.1509206305908,18.1456877842419
8100,Andersa - Kleeberga,53.1509553963488,18.1456581788021
8101,Kleeberga - Andersa,53.1510012627262,18.1449521552633
8102,Bajka,53.1517883409226,18.1535888284291
8103,Bajka,53.1518343483861,18.1535849295196
8104,Bajka,53.15130866898111,18.1545028386662
8105,Kasztelańska - Andersa,53.1537943807538,18.1617450962176
8106,Andersa - Wolna,53.157510800245,18.1635041681437
8107,Andersa - Wolna,53.1575233242159,18.1634518454752
8108,Andersa - Wolna,53.15808629070151,18.1636163956767
8109,Andersa - Wolna,53.15768675358351,18.1633949871655
8110,Niepodległości,53.15997000035299,18.1663155042231
8111,Niepodległości,53.1599977361752,18.1662670373692
8112,Andersa - Gieryna,53.165605304039,18.1713223608202
8113,Andersa - Gieryna,53.16561158021671,18.1712608390182
8114,Andersa - Gieryna,53.16655,18.171369
8115,Andersa - Gieryna,53.16543,18.170958
8116,Łoskoń,53.1732653212933,18.1736054247211
8117,Łoskoń,53.17327424142629,18.1735480002412
8118,Łoskoń,53.1729259683979,18.1733069187369
8119,Łoskoń,53.17277539702591,18.173090371266
8120,Przylesie - pętla,53.14680267916349,18.1240940347333
8121,Przylesie - peron 1,53.1473024214115,18.1245019915269
8122,Przylesie - peron 2,53.1473609138635,18.1245265025157
8123,Przylesie - peron 3,53.1474152745224,18.1245495118673
8124,Przylesie pętla (koniec),53.147194,18.12487
8125,Przylesie pętla (początek 1),53.1469930705941,18.1235008831532
8126,Przylesie pętla (początek 2),53.14689599999999,18.12426
8127,Niepodległości pętla (peron 1),53.16081833370039,18.1695537293605
8128,Niepodległości pętla (peron 2),53.1607722183897,18.1695020594867
8129,Niepodległości pętla,53.16086539642161,18.1696020020987
8130,Łoskoń - Zajezdnia,53.17574,18.172777
8131,Romanowskiej - Akademicka,53.1454632594333,18.1170093098055
8132,Andersa - Akademiki,53.1424934901463,18.1366062280682
8133,Rondo Misji Pokojowych ONZ,53.1477987960248,18.1423352618167
8134,Rondo Misji Pokojowych ONZ,53.1477655426897,18.1425095147138
8135,Wyzwolenia - Geodetów,53.17387982834161,18.16413214715139
8136,Geodetów - Wyzwolenia,53.1740167069256,18.1648916036894
8137,Geodetów - Pienińska,53.173781282345,18.1696098474908
8138,Łoskoń,53.173566,18.17197
8139,Orląt Lwowskich - Pelplińska,53.16363480223905,18.16303425225883
8140,Orląt Lwowskich - Pelplińska,53.163765,18.163065
8141,Wyzwolenia - Brzegowa,53.181681,18.170686
8142,Wyzwolenia - Geodetów),53.17445133545853,18.16434618131876
8143,Matki Teresy z Kalkuty - Romanowskiej,53.14568093417586,18.10905779180139
8144,Matki Teresy z Kalkuty - Romanowskiej,53.14713507200412,18.10914880725501
8145,Matki Teresy z Kalkuty - Rydygiera,53.15150691374253,18.10957287455842
8146,Matki Teresy z Kalkuty - Rydygiera,53.15256279745034,18.11023218839649
8147,Jasiniecka - Pod Skarpą,53.15766609918154,18.09830768992246
8148,Trybowskiego - Jasiniecka,53.15527023825315,18.09819941512771
8149,Trybowskiego - Majtkowskiego,53.15467486159316,18.10295664674263
8150,Trybowskiego - Matki Teresy z Kalkuty,53.15381307729616,18.10930688815812
8151,Trybowskiego - Matki Teresy z Kalkuty,53.15398845578517,18.1087177603002
8152,Trybowskiego - Majtkowskiego,53.1546192792316,18.10420951026156
8153,Jasiniecka - Trybowskiego,53.15573369093258,18.09790358540467
8154,Jasiniecka - Pod Skarpą,53.15748573192361,18.0984370098252
8155,Eskulapa,53.1560788089919,18.11045141689994
9001,Plac Poznański,53.122223,17.9895
9002,Plac Poznański,53.121582,17.988277
9003,Plac Poznański,53.12274900000001,17.98675
9004,Plac Poznański,53.12274900000001,17.986195
9005,Szubińska - Piękna,53.11919549263129,17.9775705052286
9006,Szubińska - Piękna,53.119489436058,17.9796766974435
9007,Piękna - Szubińska,53.1186459670174,17.9792596855791
9008,Szubińska - Gnieźnieńska,53.117558,17.971443
9009,Szubińska - Gnieźnieńska,53.117838193978,17.9738564247318
9010,Szubińska - Żwirki i Wigury,53.11626249621993,17.96682620634122
9011,Szubińska - Żwirki i Wigury,53.11573333333333,17.96641111111111
9012,Błonie,53.11480700000001,17.960333
9013,Błonie,53.114887,17.961056
9014,Błonie,53.114777,17.960611
9015,Błonie,53.114693,17.960693
9016,Błonie,53.114777,17.961082
9017,Błonie,53.11475,17.961416
9018,Błonie,53.114666,17.96114
9019,Błonie,53.11458200000001,17.960751
9020,Błonie,53.114944,17.960861
9021,Piękna - Szubińska,53.11807301454289,17.979918597236
9022,Władysława IV - Stawowa,53.12047777777778,17.96341944444444
9023,Władysława IV - Stawowa,53.12030277777778,17.96328055555556
9024,Władysława IV - Czerwonego Krzyża,53.12362499999999,17.96085277777778
9025,Władysława IV - Czerwonego Krzyża,53.12352777777778,17.96083611111111
9026,Barwna,53.12470555555556,17.96301388888889
9027,Barwna,53.12475,17.96366388888889
9028,Nowy Rynek,53.12036944444444,17.99751388888889
9029,Nowy Rynek,53.120056,17.997944
9030,Stroma - Kossaka,53.11483469490337,17.98712904818727
9031,Stroma - Kossaka,53.11563383466792,17.98663739242281
9032,Leszczyńskiego,53.114361,17.990278
9033,Leszczyńskiego,53.113918,17.989195
9034,Solskiego - Kossaka,53.1131118827106,17.9841391665531
9035,Solskiego - Kossaka,53.112999,17.983973
9036,Solskiego - Bielicka,53.11217083158009,17.990339020704
9037,Solskiego - Bielicka,53.112141,17.992722
9038,Solskiego - Ugory,53.1134617872273,17.9978163600154
9039,Solskiego - Ugory,53.1140201340643,18.0004693389224
9040,Skorupki - Czackiego,53.110195,17.980639
9041,Skorupki - Czackiego,53.110889,17.98175
9042,Żwirki i Wigury - Jaskółcza,53.11128611111111,17.970925
9043,Żwirki i Wigury - Jaskółcza,53.11177777777778,17.97060277777778
9044,Inowrocławska - Skorupki,53.10773055555556,17.97922222222222
9045,Inowrocławska - Skorupki,53.1078638888889,17.97770555555556
9046,Skorupki,53.1082398015182,17.97674482078583
9047,Skorupki,53.10837188606274,17.97748751165983
9048,Inowrocławska - Zajezdnia,53.10753793248465,17.98458757034257
9049,Inowrocławska - Zajezdnia,53.10761872898752,17.98303597841417
9050,Brzozowa - Bielicka,53.109333,17.992361
9051,Brzozowa - Bielicka,53.109249,17.992027
9052,Brzozowa - Jesionowa,53.1090852077849,18.0025378462514
9053,Brzozowa - Jesionowa,53.1089346029882,18.0048529573072
9054,Nowy Rynek,53.12045058829119,17.99714157487216
9055,Bielicka-Solskiego,53.112999,17.991472
9056,Szubińska - Żwirki i Wigury,53.11615555555556,17.96644722222222
9057,Schulza - Stawowa,53.1169688539251,17.9565271788601
9058,Schulza - Stawowa,53.1169065636503,17.9563954202175
9059,Stawowa - Władysława IV,53.1204550040214,17.9657361681603
9060,Stawowa - Władysława IV,53.1202310872795,17.9646392782295
9061,Wysoka - Koszarowa,53.1223035911004,17.9752849997542
9062,Połtyna - Szubińska,53.12056500000001,17.977344
9063,Stawowa - XVI Pułku Ułanów Wielkopolskich,53.122044,17.970636
9064,Ugory - Solskiego,53.11471174793133,17.99850467322569
9065,Ugory - Nowodworska,53.11721790084442,17.99461271363449
9066,Ugory - Nowodworska,53.11739126841699,17.99420485914047
9067,Skorupki - Orla,53.11733850452251,17.99087646420039
9068,Skorupki - Orla,53.11736770444895,17.99106318589599
9069,Stroma - Orla,53.11740964626858,17.98532607557932
9070,Stroma - Orla,53.11670062498284,17.98575498471229
9071,Skorupki - Jordanowska,53.11563596971152,17.9890123059279
9072,Skorupki - Jordanowska,53.11594797144211,17.98924070231167
9073,Schulza - Szubińska,53.11509368104691,17.9588887022795
9074,Dworzec Błonie,53.11912277253139,17.9533225954038
9075,Schulza - Szubińska,53.11506931593917,17.9590422192092
10001,Zbożowy Rynek,53.11999166666666,18.00263888888889
10002,Zbożowy Rynek,53.11971944444444,18.00313888888889
10003,Zbożowy Rynek,53.1194193248827,18.0066316251899
10004,Zbożowy Rynek,53.119463097449,18.0063076649962
10005,Rondo Inowrocławskie,53.10898958962431,18.0087243588526
10006,Rondo Inowrocławskie,53.1073301084586,18.0079114138213
10007,Jana Pawła II,53.10841733879221,18.0115067914288
10008,Jana Pawła II - Ziemska,53.103638,18.007999
10009,Jana Pawła II - Ziemska,53.104252,18.008307
10010,Jana Pawła II - Wąbrzeska,53.09727339177268,18.00866673680594
10011,Jana Pawła II - Wąbrzeska,53.09498568452023,18.00877672755532
10012,Port Lotniczy,53.09394499999999,17.998138
10013,Rondo Kujawskie,53.1134078844855,18.0085600985854
10014,Rondo Kujawskie,53.1131800601564,18.0075116585192
10015,Rondo Kujawskie,53.114666,18.005943
10016,Rondo Kujawskie,53.11535099454309,18.0072226669858
10017,Rondo Kujawskie,53.1148777877408,18.0103843373636
10018,Rondo Kujawskie,53.1148241702597,18.01126554459
10019,Plac Kościeleckich,53.1205167688261,18.005075859661
10020,Plac Kościeleckich,53.1205248001959,18.0046902331143
10021,Plac Kościeleckich,53.12054166666667,18.004225
10022,Plac Kościeleckich,53.120808,18.004944
10023,Plac Kościeleckich,53.1208007837652,18.0052454114903
10024,Babia Wieś,53.120361,18.014807
10025,Babia Wieś,53.11975045620563,18.01498552012144
10026,Rondo Kujawskie,53.1145544250849,18.0098308564436
10027,Toruńska - Żupy,53.119141,18.022417
10028,Toruńska - Żupy,53.119251,18.021999
10029,Toruńska - Hala,53.118305,18.028084
10030,Toruńska - Hala,53.11821727675218,18.02820395266234
10031,Wzgórze Wolności,53.11494663462931,18.0151628557439
10032,Wzgórze Wolności,53.114307,18.019806
10034,Wzgórze Wolności,53.1147266129237,18.0153723125068
10035,Wzgórze Wolności,53.1146759553073,18.0176791107328
10036,Wojska Polskiego - Ujejskiego,53.1139453507723,18.0231936097893
10037,Wojska Polskiego - Ujejskiego,53.1127292040872,18.0248246856632
10038,Wojska Polskiego - Ujejskiego,53.1138463536469,18.0230651878088
10039,Wojska Polskiego - Ujejskiego,53.1137589609867,18.0231592798546
10040,Ujejskiego - Wojska Polskiego,53.1138117209676,18.0255127067233
10041,Wojska Polskiego - Kładka,53.1094800670391,18.0309824420641
10042,Wojska Polskiego - Kładka,53.110035462723,18.0306476527439
10043,Wojska Polskiego - Kładka,53.1100774779304,18.0301429590393
10044,Wojska Polskiego - Kładka,53.110098527345,18.0301979917027
10045,Wyżyny,53.1078055942556,18.0384046422056
10046,Wyżyny,53.1080931877537,18.0374570353658
10047,Wyżyny,53.1079621587717,18.0371131966854
10048,Wyżyny,53.1080254488966,18.0363332349423
10049,Magnuszewska - Modrakowa,53.10676240849769,18.03174105643102
10050,Magnuszewska - Modrakowa,53.1067837291448,18.0325226756838
10051,Wojska Polskiego - Ku Wiatrakom,53.1078501276098,18.0410951225741
10052,Wojska Polskiego - Ku Wiatrakom,53.10787191754719,18.0416011947907
10053,Glinki - Cmentarna,53.10936000000001,18.018667
10054,Glinki - Cmentarna,53.10928000000001,18.018639
10055,Glinki - Zelwerowicza,53.10730733942351,18.0230278240988
10056,Glinki - Zelwerowicza,53.106583,18.0235
10057,Glinki - Magnuszewska,53.10511,18.025557
10058,Magnuszewska - Glinki,53.104721,18.0275
10059,Glinki - Dąbrowa,53.10319345210019,18.0289360573843
10060,Glinki - Dąbrowa,53.102501,18.030027
10061,Glinki - Zajęcza,53.0996119180469,18.035548414262
10062,Glinki - Zajęcza,53.09994500000001,18.034695
10063,Zbożowy Rynek,53.1196751463821,18.0034822460308
10064,Ujejskiego - Wojska Polskiego,53.1129481527412,18.0220981151724
10065,Ujejskiego - Wojska Polskiego,53.11294473034261,18.0222702001124
10066,Ujejskiego - Karpacka,53.111637,18.015806
10067,Ujejskiego - Karpacka,53.11161,18.015972
10068,Cmentarna - Glinki,53.10908130657062,18.01744535031595
10069,Cmentarna - Glinki,53.10898767144709,18.0174764520047
10070,Cmentarna - Gniewkowska,53.10440939300809,18.01708983828884
10071,Cmentarna - Gniewkowska,53.10478924415277,18.01719634285056
10072,Cmentarna - Dobrzyńska,53.099972,18.017221
10073,Cmentarna - Dobrzyńska,53.100582,18.017221
10074,Wąbrzeska,53.095444,18.018307
10075,Wąbrzeska,53.095055,18.018084
10076,Wyżyny,53.109001,18.034555
10077,Wzgórze Wolności,53.11530778529,18.0170368544271
10078,Zbożowy Rynek,53.1201297774077,18.005539094853
10079,Jana Pawła II - Wąbrzeska,53.097887,18.009091
10080,Stary Rynek,53.1216944382308,18.00093930655447
10081,Zbożowy Rynek,53.1192060593244,18.006652601684
10082,Zbożowy Rynek,53.1193428441934,18.007134366905
10083,Babia Wieś,53.1192337467421,18.0154368289782
10084,Babia Wieś,53.1193112070374,18.0161983934492
10085,Toruńska - Żupy,53.1179743408095,18.0242424362843
10086,Toruńska - Żupy,53.1180521855669,18.0247016360856
11001,Rondo Toruńskie,53.1169595983986,18.0347744149469
11002,Rondo Toruńskie,53.11702777777778,18.0348
11003,Rondo Toruńskie,53.117611,18.032833
11004,Rondo Toruńskie,53.117748,18.032417
11005,Rondo Toruńskie,53.116833,18.0355
11006,Rondo Toruńskie,53.1158916666667,18.0334805555556
11007,Wojska Polskiego - Szarych Szeregów,53.1069728019959,18.0472551821111
11008,Wojska Polskiego - Szarych Szeregów,53.1071615881766,18.048306264197
11009,Szarych Szeregów,53.1082554259022,18.0452554698294
11010,Szarych Szeregów,53.1082383569071,18.0451419991286
11011,Szarych Szeregów,53.10822803253439,18.0450746801237
11012,Szarych Szeregów,53.10833233150571,18.0448992268638
11013,Glinki,53.0975942249693,18.0421855795975
11014,Glinki,53.0975317203476,18.041206836822
11015,Glinki,53.09757562168429,18.0412339361279
11016,Glinki - Szpitalna,53.0975618522698,18.0396377986631
11017,Glinki - Szpitalna,53.0974249083305,18.0401971588812
11018,Szpitalna - Łomżyńska,53.1024723723199,18.0448201952318
11019,Szpitalna - Łomżyńska,53.10227715383151,18.0447035238438
11020,Szpitalna - Solna,53.09913999999999,18.043583
11021,Szpitalna - Solna,53.09891500000001,18.043388
11022,Glinki - Polon,53.094276,18.045029
11023,Glinki - Polon,53.095196,18.044361
11024,Glinki - Eltra,53.091862,18.044361
11025,Glinki - Eltra,53.091694,18.044443
11026,Glinki BFM,53.08939,18.043943
11027,Wojska Polskiego - Prezydenta Lecha Kaczyńskiego,53.1057044469739,18.0505082424958
11028,Wojska Polskiego - Prezydenta Lecha Kaczyńskiego,53.105694,18.051556
11029,Wojska Polskiego - Prezydenta Lecha Kaczyńskiego,53.10648363483503,18.04928115632172
11030,Wojska Polskiego - Prezydenta Lecha Kaczyńskiego,53.1065032195135,18.0494231920819
11031,Wojska Polskiego - Baczyńskiego,53.105698,18.050458
11032,Wojska Polskiego - Baczyńskiego,53.10506,18.05323
11033,Wojska Polskiego - Baczyńskiego,53.1037550298481,18.05589436805489
11034,Wojska Polskiego - Baczyńskiego,53.10382384391068,18.05596871344166
11035,Kapuściska,53.102306,18.059889
11036,Kapuściska,53.10274122298011,18.0590534045327
11037,Kapuściska,53.102249,18.060556
11038,Kapuściska,53.102612,18.060362
11039,Perłowa - Toruńska,53.11493409194478,18.04572825113982
11040,Perłowa - Toruńska,53.11504926118341,18.0458745599344
11041,Toruńska - Perłowa,53.11534166666667,18.0466
11042,Toruńska - Perłowa,53.11550517638827,18.04532338291268
11043,Toruńska - Perłowa,53.115665,18.045305
11044,Toruńska - Łuczniczki,53.114887,18.048306
11045,Glinki BFM,53.08894300000001,18.044027
11046,Szpitalna - Łomżyńska,53.1025442760398,18.0449854703637
11047,Szpitalna - Solna,53.09913999999999,18.043638
11048,Toruńska - Łuczniczki,53.11514164966722,18.04879809714984
11049,Rondo Toruńskie,53.11628000000001,18.032972
11050,Szpitalna - Łomżyńska,53.10227999999999,18.044806
11051,Park Przemysłowy - Paciorkiewicza,53.091888,18.05575
11052,Park Przemysłowy - Paciorkiewicza,53.090637,18.054722
11053,Park Przemysłowy - Raczkowskiego,53.095333,18.057861
11054,Park Przemysłowy - Raczkowskiego,53.095417,18.057167
11055,Park Przemysłowy biurowiec ,53.09455499999999,18.065472
11056,Park Przemysłowy/Paciorkiewicza,53.0899726384837,18.0561278126805
11057,Park Przemysłowy/Falkowskiego,53.086491,18.062613
11058,Park Przemysłowy/Falkowskiego,53.08719300000001,18.061689
11059,Park Przemysłowy/Petersona,53.0840477001121,18.0729245557732
11060,Park Przemysłowy/Petersona,53.0842719121355,18.0716723777385
11061,Park Przemysłowy/Gamma,53.07899499999999,18.075298
11062,Park Przemysłowy/Gamma,53.079941,18.075729
11063,Park Przemysłowy/Exploseum,53.072876,18.081945
11064,Łukasiewicza,53.1063874165484,18.0554773131694
11065,Baczyńskiego - Wojska Polskiego,53.1044322761097,18.0578583257791
11066,Baczyńskiego - Sandomierska,53.1065439144958,18.059358447702
11067,Rondo Toruńskie,53.1173048938593,18.0319173336351
11068,Wojska Polskiego - Hechlińskiego,53.101148147952,18.0643414504234
11069,Wojska Polskiego - Hechlińskiego,53.1010789203452,18.0642578373053
11070,Wojska Polskiego - Dziatkiewicza,53.0991416902184,18.0691076687698
11071,Wojska Polskiego - Dziatkiewicza,53.0989480561961,18.0692186093805
11072,Wojska Polskiego - Petersona,53.0953200508454,18.0787817708044
11073,Wojska Polskiego - Petersona,53.09507004663509,18.0792731203311
11074,Wulffa - Eberhardta,53.09203462223611,18.0874615497906
11075,Wulffa - Eberhardta,53.0922004940686,18.0869829359412
11076,Hutnicza - Eberhardta,53.0935365126997,18.1024811222155
11077,Hutnicza - Eberhardta,53.0933483489658,18.1025299061426
11078,Glinki - koniec,53.0983174161613,18.039283098928
11079,Glinki - początek,53.0983196054979,18.0388970073621
11080,Toruńska - Spokojna,53.11583300144623,18.04243600000479
12001,Toruńska - Filmowa,53.115028,18.051556
12002,Toruńska - Filmowa,53.115028,18.051056
12003,Toruńska - Kazimierza Wielkiego,53.11564862312909,18.0594966387213
12004,Toruńska - Kazimierza Wielkiego,53.115501,18.056999
12005,Toruńska - K.Wielkiego,53.1154102334708,18.0592436920837
12006,K.Wielkiego - Toruńska,53.1150702049471,18.0581721161728
12007,Toruńska - Zajezdnia tramwajowa,53.116165,18.064251
12008,Toruńska - Zajezdnia tramwajowa,53.116081,18.063862
12009,Toruńska - Zajezdnia tramwajowa,53.1160860256225,18.0644129907767
12010,Toruńska - Zajezdnia tramwajowa,53.1159766076302,18.0636877384213
12011,Toruńska - Tor awaryjny,53.11772200000001,18.06975
12012,Toruńska - Tor awaryjny,53.11772200000001,18.06925
12013,Toruńska - Równa,53.117973,18.076445
12014,Toruńska - Równa,53.118027,18.075972
12015,Toruńska - Równa,53.117863,18.076944
12016,Toruńska - Równa,53.11783200000001,18.074612
12017,Toruńska - Kielecka,53.11825200000001,18.082945
12018,Toruńska - Kielecka,53.118279,18.082527
12019,Toruńska - Kielecka,53.1180528219217,18.082490310868
12020,Toruńska - Kielecka,53.1181920124565,18.0850273974318
12021,Toruńska - Sporna,53.118221,18.088139
12022,Toruńska - Sporna,53.11833200000001,18.087584
12023,Toruńska - Stomil brama,53.1170394628981,18.0937949040565
12024,Toruńska - Stomil brama,53.117138,18.093666
12025,Stomil,53.11507179601559,18.10515367054703
12026,Stomil,53.11511557257717,18.10538645604625
12027,Stomil,53.1149899062492,18.1061799030023
12028,Nowotoruńska-Hutnicza,53.103916,18.10675
12029,Hutnicza - Nowotoruńska,53.106808,18.10775
12030,Hutnicza - Nowotoruńska,53.107113,18.107944
12031,Łęgnowo,53.10091800000001,18.105417
12032,Łęgnowo,53.100945,18.105362
12033,Nowotoruńska-Objazdowa,53.107639,18.099001
12034,Łęgnowo,53.0999300125649,18.10491195462
12035,Nowotoruńska-Objazdowa,53.108028,18.097807
12036,Nowotoruńska - Prezydenta Lecha Kaczyńskiego,53.113583,18.060917
12037,Nowotoruńska - Prezydenta Lecha Kaczyńskiego,53.113861,18.057138
12038,Smoleńska - Kielecka,53.11305508383321,18.0835578086384
12039,Smoleńska - Kielecka,53.113194,18.083111
12040,Smoleńska - Budowlana,53.112583,18.088778
12041,Smoleńska - Pińczowska,53.111862,18.092138
12042,Smoleńska - Pińczowska,53.11193502106221,18.09161319691
12043,Objazdowa - Nowotoruńska,53.109833,18.09086
12044,Objazdowa - Nowotoruńska,53.109859,18.091139
12045,Chemiczna - Energetyczna,53.106861,18.0895
12046,Chemiczna - Energetyczna,53.10677699999999,18.08989
12047,Chemiczna - Eurogaz,53.10589865682533,18.07557110528895
12048,Chemiczna - Eurogaz,53.10578224865758,18.07276850984595
12049,Chemiczna - Ogrodnictwo,53.10885291379222,18.07386118724221
12050,Chemiczna - Ogrodnictwo,53.10867454100815,18.07375549389901
12051,Mokra,53.110279,18.071112
12052,Dworzec Łęgnowo,53.111752,18.114082
12053,Dworzec Łęgnowo,53.111694,18.114082
12054,Toruńska - Wypaleniska,53.104668,18.122055
12055,Toruńska - Wypaleniska,53.104668,18.122
12056,Toruńska - Przyłubska,53.10072300000001,18.124611
12057,Toruńska - Przyłubska,53.100307,18.124861
12058,Toruńska - Wieża ciśnień,53.095417,18.12561
12059,Toruńska - Wieża ciśnień,53.09535999999999,18.125584
12060,Plątnowska - Kościół,53.091442,18.132471
12061,Plątnowska - Kościół,53.091221,18.132195
12062,Plątnowska - Przejazd,53.083942,18.124529
12063,Plątnowska - Przejazd,53.084499,18.124889
12064,Nowotoruńska - Plątnowska,53.08386975714669,18.11913116577358
12065,Nowotoruńska - Plątnowska,53.08456758614837,18.11856781332861
12066,Nowotoruńska - Przepompownia,53.08764841529583,18.11614747660395
12067,Nowotoruńska - Przepompownia,53.08821002135364,18.11597020664611
12068,Nowotoruńska - Żółwińska,53.09214,18.113417
12069,Nowotoruńska - Żółwińska,53.092918,18.113001
12070,Spółdzielcza,53.095112,18.107529
12071,Świetlicowa,53.095917,18.108723
12072,Chemiczna - Szczerby,53.105862,18.094973
12073,Chemiczna - Szczerby,53.10552413362331,18.0954612918809
12074,Nowotoruńska-Hutnicza,53.104886,18.106258
12075,Stomil,53.11525000000001,18.105307
12076,Eurogaz,53.104668,18.076971
12077,Plątnowska - Otorowska,53.089012,18.130272
12078,Plątnowska - Otorowska,53.089241,18.130707
12079,Mokra - koniec,53.112139,18.070979
12080,Prądocińska,53.06457799999999,18.133094
12081,Prezydenta Lecha Kaczyńskiego - Sandomierska,53.111067,18.055837
12082,Prezydenta Lecha Kaczyńskiego - Sandomierska,53.11166399999999,18.056952
12083,Kazimierza Wielkiego - Toruńska,53.116259,18.057794
12084,Kazimierza Wielkiego - Toruńska,53.11618599999999,18.058224
12085,Smoleńska - Budowlana,53.112292,18.088641
12086,Sporna - Toruńska,53.1194083333333,18.0873111111111
12087,Toruńska - Sporna,53.1181944444444,18.0876666666667
12088,Nowotoruńska - Kielecka,53.11173276763961,18.0817169560772
12089,Chemiczna - Dachtery,53.1063172742281,18.0798107416901
12090,Chemiczna - Dachtery,53.10630305562371,18.0812398586913
12091,Nowotoruńska - Kielecka,53.1113495625463,18.0828011838532
12092,Toruńska - Stomil brama (99023),53.11686133132891,18.0942123640567
12093,Toruńska - Stomil brama,53.11703,18.093701
12094,Dachtery - Chemiczna,53.106668107158,18.0806721914324
12095,Kielecka / Smoleńska,53.1141466478635,18.08302248239
12096,Kielecka / Smoleńska,53.11356363920011,18.0829427107971
12097,Kielecka / Toruńska,53.1178559427527,18.0844201346233
13001,Białe Błota - Urząd Gminy,53.0994888398732,17.9188850973373
13002,Białe Błota - Urząd Gminy,53.0997649690004,17.92088603094
13005,Białe Błota - Kapliczna,53.09672114061411,17.9029909663663
13006,Białe Błota - Kapliczna,53.0967948855192,17.9050519089049
13007,Białe Błota - Sosnowa,53.0952549985882,17.8938969104225
13008,Kruszyn Krajeński - Jasiniecka,53.0903348776968,17.8915988440095
13009,Lipniki - Akacjowa,53.08847089260989,17.884804094158
13010,Kruszyn Krajeński - Słoneczna,53.0864628861602,17.8796051854613
13011,Lipniki - Wierzbowa,53.0872086214829,17.8802490488504
13012,Kruszyn Krajeński - Łąkowa,53.08511369283,17.8748126488677
13013,Lipniki - Wiadukt ,53.0849285116771,17.8723948535416
13014,Lipniki - Wiadukt ,53.0846314739772,17.8690338953637
13015,Lipniki - STW,53.0852397033834,17.8620876195629
13016,Lipniki - STW,53.08512792403661,17.8634243363578
13017,Murowaniec - Strusia,53.0889247577035,17.8537330744386
13018,Murowaniec - Strusia,53.088280674509,17.8535494328909
13019,Murowaniec - Kalinowskiego,53.09379812063239,17.8540503123174
13020,Strzyżawa,53.135909564386,18.1856710137381
13021,Strzyżawa,53.1364512093476,18.1860257312484
13022,Ostromecko Wybudowanie,53.13980878438699,18.204369770647
13023,Ostromecko Wybudowanie,53.1393742718477,18.2013208089383
13024,Ostromecko,53.146362,18.208418
13025,Ostromecko,53.146168,18.208529
13026,Lisi Ogon - Starowiejska,53.1271614105187,17.8840261123446
13027,Białe Błota - Chlebowa,53.09747371785321,17.921394917923
13028,Białe Błota - Chlebowa,53.0980170745197,17.9223986673076
13029,Białe Błota - Czerska,53.0942638953644,17.9154336021075
13030,Białe Błota - Czekoladowa,53.09524681332229,17.9175178893875
13031,Białe Błota - Modra,53.09011508353319,17.905315330094
13032,Białe Błota - Modra,53.0902423621917,17.9065940267169
13033,Białe Błota - Kruszyńska,53.08691960287359,17.9036435515706
13034,Białe Błota - Kruszyńska,53.08746268997769,17.9033189746732
13035,Ciele - Pogodna,53.0765062012739,17.9050455148738
13036,Ciele - Pogodna,53.0767197638401,17.9053795546452
13037,Ciele - Makowa,53.073131234822,17.8992499612658
13038,Ciele - Makowa,53.0735317178117,17.9000280496776
13039,Ciele - Ogrody,53.0690244873486,17.8951896303225
13040,Ciele - Kościelna,53.0722584942203,17.9207046319042
13041,Ciele - Kościelna,53.0732766641631,17.9186249040623
13042,Zielonka - Bocianowo,53.0627568595556,17.9424539455313
13043,Zielonka - Orzechowa,53.0580582499454,17.9625171693905
13044,Zielonka - Orzechowa,53.0585034820185,17.9613943678034
13045,Przyłęki - Biznesowa,53.0490996761819,17.9723656254467
13046,Przyłęki - Biznesowa,53.0480274009462,17.9719715191999
13047,Przyłęki - Młyńska,53.0411819142012,17.9677853104934
13048,Przyłęki - Kościół,53.0397306653131,17.9717466893854
13049,Przyłęki - Kościół,53.0399066701239,17.9710857123482
13050,Przyłęki - Cicha,53.0380828831156,17.9833561281463
13051,Przyłęki - Cicha,53.03823792998531,17.9827684859948
13052,Przyłęki - Wodna,53.0363594841546,17.9896647087006
13053,Przyłęki - Wodna,53.0365952891695,17.989180539489
13054,Osielsko - Myślęcinek,53.1751216918862,18.0562417143633
13055,Osielsko - Myślęcinek,53.1746669014541,18.0550830840513
13056,Osielsko - Młyn,53.18150535412191,18.0644239384217
13057,Osielsko - Młyn,53.1811036981608,18.0636323135234
13058,Osielsko - Kwiatowa,53.18639140323341,18.0761867743092
13059,Osielsko - Kwiatowa,53.1859058005156,18.0793853656644
13060,Osielsko - Gmina,53.187478762368,18.0712534426163
13061,Osielsko - Leśna,53.1857102764722,18.0865927208248
13062,Osielsko - Leśna,53.185695295074,18.0854792126449
13063,Osielsko - Wiązowa,53.18578903355081,18.0895067659171
13064,Osielsko - Wiązowa,53.1858424597806,18.0895015269267
13065,Osielsko - Centralna,53.1878723286369,18.0969013926509
13066,Osielsko - Centralna,53.1876142318267,18.0967241491079
13067,Niwy,53.1919178081654,18.0986750233774
13068,Niemcz - Kasprowicza,53.1786802181573,18.0397448477415
13069,Niemcz - Słowackiego,53.17704882218461,18.0398427261371
13070,Niemcz - Mickiewicza,53.181377688849,18.0391343316829
13071,Niemcz - Mickiewicza,53.18107767276749,18.039015852117
13072,Niemcz - Pod Wierzbami,53.1830724698625,18.0336515823919
13073,Niemcz - Urocza,53.18254922976158,18.03329495482867
13074,Niemcz - Malczewskiego,53.1893386285489,18.0395615481022
13075,Niemcz - Rutkiewicza,53.1885210030553,18.0394472157282
13076,Niemcz - Krzyszkowiaka,53.19429938696051,18.0402821685684
13077,Niemcz - Krzyszkowiaka,53.19366735175459,18.0401063786476
13078,Jagodowo - Polna,53.20398009528461,18.0451483181166
13079,Jagodowo - Polna,53.2045474141376,18.0454146174382
13080,Żołędowo - Koronowska,53.2134334410002,18.0531974254208
13081,Żołędowo - Koronowska,53.2126618897126,18.0520435629732
13082,Żołędowo - Szkoła,53.2201110782175,18.0593937753779
13083,Żołędowo - Szkoła,53.21916862776891,18.0586828210798
13084,Żołędowo - Przyjazna,53.2182170217969,18.0778465884175
13085,Żołędowo - Przyjazna,53.2182831914371,18.077476312198
13086,Żołędowo - Augustowska,53.2133948102151,18.0914084837131
13087,Maksymilianowo - Ptasia,53.20756367922241,18.0345340410453
13088,Maksymilianowo - Ptasia,53.2073274375827,18.0350581465118
13089,Maksymilianowo - Główna,53.211252115303,18.0314748958959
13090,Maksymilianowo - Główna,53.2121805872641,18.0321374602204
13091,Maksymilianowo - Szkoła,53.2157395423824,18.0410392728628
13092,Maksymilianowo - Szkoła,53.2160857362274,18.04230251066
13093,Żołędowo - Koronowska,53.21400971221991,18.0504190262925
13094,Drzewce,53.1066666666667,17.8554917403
13095,Łochowo - Wierzbowa,53.1215016586792,17.8397744222868
13096,Łochowo - Sosnowa nż,53.1158194444444,17.8452189329
13097,Drzewce,53.1063722222222,17.8551284364
13098,Murowaniec - Św.R. Kalinowskiego,53.0932868531841,17.8537585260371
13099,Łochowo - Sosnowa nż,53.11585,17.8459656004
13100,Łochowo,53.1220457172475,17.8390553590256
13101,Ciele - Źródlana,53.06965337875679,17.928248441961
13102,Ciele - Źródlana,53.0701397829643,17.9267846581905
13103,Jagodowo - Letnia NŻ,53.2007211232058,18.0431850908017
13104,Jagodowo - Letnia NŻ,53.200557446792,18.0429852600025
13105,Stryszek,53.0469558699909,17.9999356570977
13106,Stryszek,53.04807648912039,17.9989632439291
13107,Brzoza,53.0312745756006,18.0171384332815
13108,Brzoza,53.0317161090882,18.0169321681659
13109,Chmielniki I,53.01173669718001,18.0426798651606
13110,Chmielniki I,53.0124466652237,18.0420036270259
13111,Chmielniki - Plaża,53.0041255086121,18.049275496525
13112,Chmielniki - Plaża,53.00505194312899,18.0493643671992
13113,Chmielniki - Plaża - pętla,53.0055475420954,18.0495094513217
13114,Prądocin - pętla,52.999094597014,18.0576886317742
13115,Prądocin,52.9978745448267,18.0570236510248
13116,Prądocin,52.9987399422382,18.0558472756171
13117,Januszkowo,52.98483935677211,18.0792797448455
13118,Januszkowo,52.9855031312307,18.0784133847266
13119,Nowa Wieś Wielka - koniec,52.9702428137402,18.0906859924542
13120,Nowa Wieś Wielka - początek,52.97069397181809,18.0907689699953
13121,Kruszyn Krajeński - Mroźna,53.0659000186531,17.8735464536937
13122,Kruszyn Krajeński - Mroźna,53.0662192337182,17.8726051023017
13123,Kruszun Krajeński - Topolowa,53.0677554274863,17.8653149248037
13124,Ciele - Ogrody (świetlica),53.0684012250889,17.8962987105971
13125,Jarużyn - Krakowska,53.19122400000001,18.154199
13126,Jarużyn - Rajska,53.200175,18.156161
13127,Strzelce Górne - Diamentowa,53.20443999999999,18.156055
13128,Strzelce Górne - Wilcza,53.20901887940739,18.15537200028921
13129,Strzelce Górne - Szkolna,53.211273,18.159073
13130,Strzelce Górne - Gołębia,53.210508,18.166418
13131,Strzelce Dolne II,53.206281,18.176546
13132,Strzelce Dolne III,53.198111,18.17584
13133,al. Żołnierzy Wyklętych - Ciele,53.07312300288375,17.92102947333205
13134,Trzciniec - Sarnia,53.08729632437949,17.94692590268429
13135,Trzciniec - Sarnia,53.0868160070758,17.94704375143428
13136,Niwy - Karkonoska,53.19800097618902,18.10131062005512
13137,Niwy - Bieszczadzka,53.19710056747223,18.10051985306845
13138,Niwy - Zakopiańska,53.20024405003111,18.10580050327046
13139,Niwy - Zakopiańska,53.20028539046812,18.10562083298824
13140,Wilcze - Krakowska,53.20116272853479,18.11410904472188
13141,Wilcze - Krakowska,53.20111973307579,18.11503977321865
13142,Jarużyn - Bociania,53.20115777168522,18.13146016957906
13143,Jarużyn - Bociania,53.20119915743325,18.13126528055006
13144,Jarużyn - Nowowiejska,53.20445240258715,18.13308545589879
13145,Jarużyn - Nowowiejska,53.20518571803176,18.1322692968303
13146,Strzelce Górne - Jaworowa,53.20755613147415,18.12973471558387
13147,Strzelce Górne - Jaworowa,53.20756766838881,18.12904838206292
13148,Wilcze - Gdyńska,53.209,18.126
99049,Stadion Zawisza,53.14502243837413,18.02313601967971
99050,Stadion Zawisza,53.14646386424699,18.02441366089955
99053,x,53.1297381540157,18.0221950114337
99058,Toruńska Hala,53.1176850752537,18.0285903988009
99065,Toruńska Hala,53.1176049181421,18.0281516390197
99078,Romanowskiej - Akademicka,53.1460282423153,18.1164425917593
99086,Artyleryjska Gdańska,53.13756988416671,18.0141833099722
99087,Nowotoruńska - Świetlicowa,53.0947,18.1118888888889
99088,Nowotoruńska - Świetlicowa,53.0947,18.1117444444445
99094,Rondo Toruńskie (Bełzy),53.1161207325514,18.035907097585
99095,Bełzy - Spokojna,53.1135073258027,18.0418573987449
99096,Spokojna,53.1142302125101,18.0428841914447
99097,Bełzy - Szarych Szeregów,53.1090064757006,18.044191225639
99098,Bełzy - Szarych Szeregów,53.108925717817,18.044345967494
99110,Rondo Buxakowskiego,53.14821052590271,18.1675843152666
99111,Rondo Buxakowskiego,53.1481860477644,18.1674294645699
99116,Wyspa Młyńska,53.121999853798,17.9967978311492
99117,UKW,53.13197747371071,18.019821060315
99120,Dziatkiewicza - Blumwego,53.0958745130516,18.0674645534081
99121,Dziatkiewicza - Blumwego,53.0958759257278,18.067520343094
99122,Park Przemysłowy - Poprzeczna,53.0932138246211,18.0676945166334
99123,Park Przemysłowy - Poprzeczna,53.09311113462451,18.0677303569999
99124,Glinki - Polon,53.09416013259289,18.0462540841818
99126,Park Przemysłowy - Michałowskieg,53.0869470738385,18.0658553052494
99127,Park Przemysłowy - Michałowskiego,53.0869357908798,18.0659147638029
99128,Ostromecko tech.,53.14647716707843,18.20710355437069
99129,Swobodna - Wyzwolenia,53.15708338331739,18.16860910706856
99130,Swobodna - Piłsudskiego,53.15825870006109,18.17284578420142
99131,Swobodna - Piłsudskiego,53.15830081556995,18.17276977209157
99132,Nowogrodzka (Muzeum Kanału Bydg.,53.12905856676037,17.97663365223596
99133,Saperów - Komandosów,53.14762966338637,17.97207042796012
99134,Saperów - Komandosów,53.14807462397826,17.9723757357306
99135,Żeglarska - Poprzeczna,53.14426933404506,17.97141332676872
99136,Żeglarska - Poprzeczna,53.14424361670254,17.97153415606848
99137,Żeglarska - Zakątek,53.14206830726506,17.97308928690291
99138,Żeglarska - Zakątek,53.14225777183089,17.97304070426318
99139,Żeglarska - Kolejarska,53.13969952717726,17.97560256069198
99140,Żeglarska - Kolejarska,53.13945256977051,17.97612244479316
99141,Magnuszewska - Bohaterów Kragujewca,53.10548613341007,18.02875669391833
99142,Wilczak tech.,53.12978029424642,17.95560173714008
99144,Pod Skarpą - Pętla Tech.,53.15785559816317,18.09943181877956
99145,Kapuściska,53.103199,18.057703
99146,Wojska Polskiego - Łukasiewicza,53.104988,18.05347
